Index,City,Country,Date,Lat,Lng,Max Temp,Humidity,Cloudiness,Wind Speed,Current Description
0,Suamico,US,2022-10-28 20:16:46,44.6319,-88.0393,59.77,51,0,5.75,clear sky
1,Bartica,GY,2022-10-28 20:16:48,6.4,-58.6167,89.92,53,64,4.36,broken clouds
2,Bilma,NE,2022-10-28 20:16:48,18.6853,12.9164,76.03,21,0,9.69,clear sky
3,Bronnoysund,NO,2022-10-28 20:16:49,65.4625,12.1997,46.4,93,75,10.36,broken clouds
4,Key West,US,2022-10-28 20:15:18,24.5557,-81.7826,91.4,74,20,11.5,few clouds
5,Pervomaysk,UA,2022-10-28 20:16:49,48.0443,30.8507,51.03,78,100,4.09,overcast clouds
6,Hermanus,ZA,2022-10-28 20:16:50,-34.4187,19.2345,62.8,79,84,15.79,broken clouds
7,Muros,ES,2022-10-28 20:16:50,42.7762,-9.0603,64.09,89,100,20.94,moderate rain
8,Cayenne,GF,2022-10-28 20:16:51,4.9333,-52.3333,84.24,79,0,11.5,clear sky
9,Paamiut,GL,2022-10-28 20:16:51,61.994,-49.6678,35.02,96,100,15.86,snow
10,Sakakah,SA,2022-10-28 20:16:51,29.9697,40.2064,74.77,31,98,9.42,overcast clouds
11,Tiznit,MA,2022-10-28 20:16:52,29.5833,-9.5,77.99,14,5,3.91,clear sky
12,Oktyabrskoye,RU,2022-10-28 20:16:52,43.0645,44.7417,46.54,93,100,2.24,light rain
13,Tanout,NE,2022-10-28 20:16:53,14.9709,8.8879,80.35,17,0,10.29,clear sky
14,Tucurui,BR,2022-10-28 20:15:41,-3.7661,-49.6725,93.74,37,100,6.02,overcast clouds
15,Creemore,CA,2022-10-28 20:16:53,44.327,-80.1075,55.29,55,20,5.75,few clouds
16,Ushuaia,AR,2022-10-28 20:14:09,-54.8,-68.3,40.66,70,40,34.52,scattered clouds
17,Ponta Do Sol,PT,2022-10-28 20:16:54,32.6667,-17.1,72.01,85,8,6.44,clear sky
18,Mahebourg,MU,2022-10-28 20:13:08,-20.4081,57.7,74.25,76,60,10.25,broken clouds
19,Ostrovnoy,RU,2022-10-28 20:16:55,68.0531,39.5131,35.13,96,98,21.18,overcast clouds
20,Amapa,BR,2022-10-28 20:16:55,1.0,-52.0,78.24,89,98,3.04,overcast clouds
21,Angren,UZ,2022-10-28 20:16:56,41.0167,70.1436,54.86,52,98,4.94,overcast clouds
22,Sorland,NO,2022-10-28 20:16:56,67.667,12.6934,44.46,86,100,16.17,overcast clouds
23,Yozgat,TR,2022-10-28 20:16:57,39.5833,35.3333,42.04,75,4,6.62,clear sky
24,Shenavan,AM,2022-10-28 20:16:57,40.0549,43.9288,54.18,43,20,14.97,few clouds
25,Backi Jarak,RS,2022-10-28 20:16:58,45.3703,19.875,63.21,70,6,2.57,clear sky
26,Port Alfred,ZA,2022-10-28 20:16:58,-33.5906,26.891,63.18,80,100,4.0,overcast clouds
27,San Antero,CO,2022-10-28 20:16:58,9.3741,-75.7589,83.84,68,63,9.37,broken clouds
28,Carballo,ES,2022-10-28 20:16:59,43.213,-8.691,67.69,84,100,15.12,overcast clouds
29,Temiscaming,CA,2022-10-28 20:16:59,46.7212,-79.0971,51.31,40,37,8.05,scattered clouds
30,Bhinmal,IN,2022-10-28 20:14:40,25.0,72.25,77.9,34,0,5.55,clear sky
31,Tasiilaq,GL,2022-10-28 20:17:00,65.6145,-37.6368,35.76,77,100,3.65,overcast clouds
32,Iqaluit,CA,2022-10-28 20:17:00,63.7506,-68.5145,22.73,93,100,40.29,light snow
33,Trapani,IT,2022-10-28 20:17:01,37.8333,12.6667,68.09,88,75,2.3,broken clouds
34,Demba,CD,2022-10-28 20:17:01,-5.51,22.2667,68.36,98,100,1.14,overcast clouds
35,Ribeira Grande,PT,2022-10-28 20:17:02,38.5167,-28.7,59.77,67,20,9.22,few clouds
36,Ilulissat,GL,2022-10-28 20:17:02,69.2167,-51.1,36.43,100,100,9.35,light rain
37,Kaz,RU,2022-10-28 20:17:03,52.9113,87.3105,27.99,86,100,7.16,overcast clouds
38,Santiago Del Estero,AR,2022-10-28 20:17:04,-27.7951,-64.2615,99.36,21,0,12.1,clear sky
39,Kruisfontein,ZA,2022-10-28 20:17:04,-34.0033,24.7314,61.88,76,99,17.98,overcast clouds
40,Bredasdorp,ZA,2022-10-28 20:17:05,-34.5322,20.0403,60.62,82,98,15.41,overcast clouds
41,Lagoa,PT,2022-10-28 20:17:06,39.05,-27.9833,62.53,61,19,12.91,light rain
42,Anastacio,BR,2022-10-28 20:17:06,-20.4836,-55.8069,91.65,41,82,10.22,broken clouds
43,Zyryanovsk,KZ,2022-10-28 20:17:07,49.7386,84.2719,28.38,78,15,0.56,few clouds
44,Umm Kaddadah,SD,2022-10-28 20:17:07,13.6017,26.6876,82.74,19,16,13.35,few clouds
45,Pisco,PE,2022-10-28 20:17:08,-13.7,-76.2167,64.45,72,9,10.36,haze
46,Mbandaka,CD,2022-10-28 20:17:08,0.0487,18.2603,70.97,96,95,4.21,overcast clouds
47,Kambove,CD,2022-10-28 20:18:09,-10.8764,26.5969,73.58,37,65,2.89,broken clouds
48,Salalah,OM,2022-10-28 20:13:59,17.0151,54.0924,77.09,78,0,2.3,clear sky
49,Moroto,UG,2022-10-28 20:18:10,2.5345,34.6666,70.39,65,38,10.54,scattered clouds
50,Nanortalik,GL,2022-10-28 20:18:10,60.1432,-45.2371,40.78,95,100,18.14,moderate rain
51,Punta Arenas,CL,2022-10-28 20:18:11,-53.15,-70.9167,41.11,65,75,21.85,light intensity shower rain
52,Saint-Francois,FR,2022-10-28 20:18:11,46.4154,3.9054,60.67,94,0,2.3,clear sky
53,Cap Malheureux,MU,2022-10-28 20:18:12,-19.9842,57.6142,74.46,71,73,3.0,broken clouds
54,Faya,SA,2022-10-28 20:18:13,18.3851,42.4509,59.11,61,17,2.01,few clouds
55,Bandarbeyla,SO,2022-10-28 20:18:13,9.4942,50.8122,79.16,81,42,12.15,light rain
56,Busselton,AU,2022-10-28 20:18:14,-33.65,115.3333,52.74,71,100,12.8,overcast clouds
57,Hit,IQ,2022-10-28 20:17:10,33.6416,42.8251,72.97,34,0,10.31,clear sky
58,Dikson,RU,2022-10-28 20:18:15,73.5069,80.5464,21.13,92,100,4.79,overcast clouds
59,Goderich,CA,2022-10-28 20:18:16,43.7501,-81.7165,56.91,58,3,5.75,clear sky
60,Bengkulu,ID,2022-10-28 20:18:16,-3.8004,102.2655,73.49,91,100,3.87,overcast clouds
61,Jamestown,US,2022-10-28 20:15:43,42.097,-79.2353,57.06,40,0,4.61,clear sky
62,Coquimbo,CL,2022-10-28 20:17:23,-29.9533,-71.3436,58.73,77,40,11.5,scattered clouds
63,Bambous Virieux,MU,2022-10-28 20:18:17,-20.3428,57.7575,74.21,88,40,3.44,light rain
64,Adrar,MR,2022-10-28 20:18:18,20.5022,-10.0711,83.77,13,3,12.68,clear sky
65,Nchelenge,ZM,2022-10-28 20:18:18,-9.3451,28.734,74.89,69,25,3.71,scattered clouds
66,Danielskuil,ZA,2022-10-28 20:18:19,-28.1887,23.5395,72.88,37,79,4.97,broken clouds
67,Royan,FR,2022-10-28 20:18:19,45.6285,-1.0281,68.85,60,100,6.44,overcast clouds
68,Avallon,FR,2022-10-28 20:18:20,47.4833,3.9,62.92,62,94,4.81,overcast clouds
69,Umm Lajj,SA,2022-10-28 20:18:20,25.0213,37.2685,79.92,58,6,9.08,clear sky
70,Massaguet,TD,2022-10-28 20:18:21,12.4755,15.4365,86.16,17,95,12.53,overcast clouds
71,Inhambane,MZ,2022-10-28 20:18:21,-23.865,35.3833,72.77,89,100,10.98,light rain
72,Paragominas,BR,2022-10-28 20:18:22,-2.9667,-47.4833,93.72,33,100,4.56,overcast clouds
73,Qaanaaq,GL,2022-10-28 20:18:23,77.484,-69.3632,-2.07,76,21,7.94,few clouds
74,Ambatofinandrahana,MG,2022-10-28 20:18:23,-20.55,46.8,64.36,77,44,1.05,light rain
75,Souillac,MU,2022-10-28 20:18:24,-20.5167,57.5167,71.98,88,40,3.44,scattered clouds
76,Mezen,RU,2022-10-28 20:18:24,65.8522,44.24,29.8,93,100,9.04,overcast clouds
77,Kourou,GF,2022-10-28 20:18:25,5.1552,-52.6478,84.25,72,14,8.16,few clouds
78,Bereznik,RU,2022-10-28 20:18:25,62.8551,42.7072,36.19,99,100,3.4,overcast clouds
79,Mecca,SA,2022-10-28 20:18:26,21.4267,39.8261,81.34,62,4,2.59,clear sky
80,Necochea,AR,2022-10-28 20:18:26,-38.5473,-58.7368,58.86,60,100,7.76,light rain
81,Mar Del Plata,AR,2022-10-28 20:13:41,-38.0023,-57.5575,64.42,51,0,13.8,light rain
82,Villa Del Rosario,CO,2022-10-28 20:18:27,7.8339,-72.4742,80.98,69,40,3.44,scattered clouds
83,Tirlyanskiy,RU,2022-10-28 20:18:28,54.2109,58.5806,23.09,87,99,2.57,overcast clouds
84,Ankazoabo,MG,2022-10-28 20:18:28,-22.2833,44.5167,74.14,60,64,11.45,broken clouds
85,Olafsvik,IS,2022-10-28 20:18:29,64.8945,-23.7142,41.11,74,87,3.8,overcast clouds
86,Cape Town,ZA,2022-10-28 20:13:47,-33.9258,18.4232,67.26,67,88,7.72,overcast clouds
87,Soyo,AO,2022-10-28 20:18:33,-6.1349,12.3689,78.37,84,98,5.68,overcast clouds
88,Volchikha,RU,2022-10-28 20:18:33,52.0333,80.3833,22.39,84,24,6.35,few clouds
89,Maloy,NO,2022-10-28 20:18:34,61.9353,5.1136,56.73,1,100,7.72,moderate rain
90,Carutapera,BR,2022-10-28 20:18:34,-1.195,-46.02,82.45,70,93,11.54,overcast clouds
91,Buraydah,SA,2022-10-28 20:18:35,26.326,43.975,73.85,18,0,8.32,clear sky
92,Manono,CD,2022-10-28 20:19:35,-7.3,27.4167,71.55,92,100,3.2,overcast clouds
93,Victoria,HK,2022-10-28 20:18:10,22.2855,114.1577,76.32,77,7,8.99,clear sky
94,Ormond Beach,US,2022-10-28 20:17:47,29.2858,-81.0559,80.1,90,100,8.05,moderate rain
95,Longyearbyen,SJ,2022-10-28 20:19:36,78.2186,15.6401,24.64,63,75,9.22,broken clouds
96,Vila Velha,BR,2022-10-28 20:19:36,-20.3297,-40.2925,78.94,83,20,20.71,few clouds
97,Kapoeta,SS,2022-10-28 20:19:37,4.7717,33.5903,84.61,40,18,10.49,few clouds
98,Blagoyevo,RU,2022-10-28 20:19:37,63.3667,47.9167,33.17,98,100,7.87,light snow
99,Constitucion,CL,2022-10-28 20:15:57,-35.3333,-72.4167,60.62,74,88,7.11,overcast clouds
100,Porto Novo,BJ,2022-10-28 20:19:38,6.4965,2.6036,82.22,80,100,4.79,overcast clouds
101,Belmonte,BR,2022-10-28 20:19:39,-15.8631,-38.8828,78.44,77,23,10.45,few clouds
102,Camacha,PT,2022-10-28 20:19:39,33.0833,-16.3333,69.22,83,20,9.22,few clouds
103,Kandi,BJ,2022-10-28 20:16:44,11.1342,2.9386,77.99,27,18,4.18,few clouds
104,Pesaro,IT,2022-10-28 20:19:41,43.9036,12.8903,65.88,77,15,3.33,few clouds
105,Kidal,ML,2022-10-28 20:19:41,18.4411,1.4078,77.05,15,0,10.96,clear sky
106,Altamira,BR,2022-10-28 20:19:42,-3.2033,-52.2064,89.69,55,40,3.44,scattered clouds
107,Fort-Shevchenko,KZ,2022-10-28 20:19:42,44.5086,50.263,55.51,69,84,19.69,broken clouds
108,Mashhad,IR,2022-10-28 20:16:32,36.297,59.6062,55.54,58,0,4.61,clear sky
109,Acari,PE,2022-10-28 20:19:43,-15.4311,-74.6158,75.56,50,0,10.07,clear sky
110,Saint-Augustin,CA,2022-10-28 20:19:43,51.226,-58.6502,43.74,40,3,17.16,clear sky
111,Ormara,PK,2022-10-28 20:19:44,25.2088,64.6357,78.49,76,43,5.03,scattered clouds
112,Coihaique,CL,2022-10-28 20:19:44,-45.5752,-72.0662,46.35,66,75,6.91,broken clouds
113,Uruguaiana,BR,2022-10-28 20:19:45,-29.7547,-57.0883,85.93,39,0,5.75,clear sky
114,Igarka,RU,2022-10-28 20:19:45,67.4667,86.5833,21.52,95,100,19.53,light snow
115,Axim,GH,2022-10-28 20:19:45,4.8699,-2.2405,78.26,86,33,6.85,scattered clouds
116,Senador Jose Porfirio,BR,2022-10-28 20:19:46,-2.5908,-51.9542,93.42,38,100,5.14,overcast clouds
117,Severodvinsk,RU,2022-10-28 20:19:46,64.5635,39.8302,32.11,98,100,9.55,light snow
118,Upernavik,GL,2022-10-28 20:19:47,72.7868,-56.1549,21.88,71,100,23.82,overcast clouds
119,Georgetown,MY,2022-10-28 20:14:47,5.4112,100.3354,79.23,90,20,0.0,few clouds
120,Clyde River,CA,2022-10-28 20:19:48,70.4692,-68.5914,14.23,85,100,21.85,overcast clouds
121,Komatipoort,ZA,2022-10-28 20:19:48,-25.4332,31.9548,70.05,63,75,11.63,broken clouds
122,Bolobo,CD,2022-10-28 20:19:49,-2.1667,16.2333,69.53,98,95,1.7,overcast clouds
123,Coruripe,BR,2022-10-28 20:15:07,-10.1256,-36.1756,78.22,80,97,11.5,overcast clouds
124,Cidreira,BR,2022-10-28 20:19:49,-30.1811,-50.2056,71.82,71,0,9.55,clear sky
125,Lethem,GY,2022-10-28 20:19:50,3.3803,-59.7968,89.56,52,75,11.41,broken clouds
126,Sinnamary,GF,2022-10-28 20:19:50,5.3833,-52.95,83.17,74,16,10.36,few clouds
127,Castro,BR,2022-10-28 20:19:51,-24.7911,-50.0119,77.18,60,51,6.49,broken clouds
128,Torbay,CA,2022-10-28 20:19:51,47.6666,-52.7314,49.28,63,20,9.22,few clouds
129,Balykshi,KZ,2022-10-28 20:19:52,47.0667,51.8667,35.6,93,75,8.95,mist
130,Pultusk,PL,2022-10-28 20:19:52,52.7025,21.0828,62.1,82,23,8.61,few clouds
131,Arlit,NE,2022-10-28 20:19:52,18.7369,7.3853,79.45,16,0,17.4,clear sky
132,Belyy Yar,RU,2022-10-28 20:19:53,53.6039,91.3903,30.09,76,0,6.71,clear sky
133,Leh,IN,2022-10-28 20:19:53,34.1667,77.5833,30.79,40,1,0.89,clear sky
134,Neuquen,AR,2022-10-28 20:15:59,-38.9516,-68.0591,75.09,29,0,10.36,light rain
135,Mehamn,NO,2022-10-28 20:19:54,71.0357,27.8492,35.55,80,75,13.8,broken clouds
136,Mezhdurechensk,RU,2022-10-28 20:19:54,53.6942,88.0603,28.8,91,100,4.81,overcast clouds
137,Arica,CL,2022-10-28 20:19:56,-18.475,-70.3042,71.15,63,0,12.66,clear sky
138,Caravelas,BR,2022-10-28 20:20:56,-17.7125,-39.2481,78.4,79,57,10.92,broken clouds
139,Andreapol,RU,2022-10-28 20:20:57,56.6513,32.2664,46.38,97,100,6.91,overcast clouds
140,Ibb,YE,2022-10-28 20:20:16,13.9667,44.1833,61.25,78,1,2.37,clear sky
141,East London,ZA,2022-10-28 20:20:57,-33.0153,27.9116,63.37,75,100,17.69,overcast clouds
142,Saint-Joseph,RE,2022-10-28 20:20:58,-21.3667,55.6167,68.38,79,20,8.23,few clouds
143,Lokosovo,RU,2022-10-28 20:20:58,61.1333,74.8167,25.7,95,84,8.7,broken clouds
144,Manyoni,TZ,2022-10-28 20:20:58,-5.7467,34.8382,73.38,33,37,7.72,scattered clouds
145,Upata,VE,2022-10-28 20:20:59,8.0086,-62.3989,87.19,86,100,3.22,overcast clouds
146,Namibe,AO,2022-10-28 20:20:59,-15.1961,12.1522,69.75,81,52,1.54,broken clouds
147,Henties Bay,NA,2022-10-28 20:21:00,-22.116,14.2845,57.96,92,0,8.95,clear sky
148,Camopi,GF,2022-10-28 20:21:00,3.1655,-52.3158,84.34,63,99,3.74,overcast clouds
149,Saldanha,ZA,2022-10-28 20:21:01,-33.0117,17.9442,64.45,86,90,8.19,overcast clouds
150,Zanjan,IR,2022-10-28 20:21:01,36.6736,48.4787,52.38,78,61,8.52,broken clouds
151,Jos,NG,2022-10-28 20:21:01,9.9167,8.9,67.28,36,81,3.15,broken clouds
152,Port Elizabeth,ZA,2022-10-28 20:18:27,-33.918,25.5701,64.09,72,75,14.97,broken clouds
153,Inta,RU,2022-10-28 20:21:03,66.0317,60.1659,19.26,96,100,10.29,overcast clouds
154,Uppsala,SE,2022-10-28 20:19:18,60.0,17.75,53.11,100,100,6.91,overcast clouds
155,Klaksvik,FO,2022-10-28 20:21:04,62.2266,-6.589,50.92,92,100,22.3,light rain
156,Mitsamiouli,KM,2022-10-28 20:21:04,-11.3847,43.2844,76.33,82,6,11.01,clear sky
157,Arraial Do Cabo,BR,2022-10-28 20:21:05,-22.9661,-42.0278,80.56,69,0,8.05,light rain
158,Navalmoral De La Mata,ES,2022-10-28 20:21:06,39.8916,-5.5406,70.95,43,100,2.06,overcast clouds
159,Pangnirtung,CA,2022-10-28 20:21:07,66.1451,-65.7125,35.6,48,100,16.11,overcast clouds
160,Correntina,BR,2022-10-28 20:21:08,-13.3433,-44.6367,90.39,25,100,5.08,overcast clouds
161,Saint-Philippe,RE,2022-10-28 20:21:08,-21.3585,55.7679,69.39,80,16,9.95,few clouds
162,Thinadhoo,MV,2022-10-28 20:21:09,0.5333,72.9333,82.04,79,99,19.3,light rain
163,Georgiyevka,KZ,2022-10-28 20:21:09,43.0369,74.7114,33.84,100,0,6.71,clear sky
164,Oriximina,BR,2022-10-28 20:21:10,-1.7656,-55.8661,96.04,34,92,6.22,overcast clouds
165,Moyale,KE,2022-10-28 20:21:10,3.5167,39.0584,67.89,79,96,5.39,overcast clouds
166,La Tuque,CA,2022-10-28 20:21:11,47.4334,-72.7824,48.45,46,17,3.44,few clouds
167,Minab,IR,2022-10-28 20:21:11,27.1467,57.0801,79.12,83,100,0.0,overcast clouds
168,Bafata,GW,2022-10-28 20:21:12,12.1667,-14.75,82.72,68,100,3.42,overcast clouds
169,Vagur,FO,2022-10-28 20:21:13,61.4732,-6.8119,48.42,96,100,24.56,light rain
170,Aswan,EG,2022-10-28 20:21:13,24.0934,32.907,78.35,27,0,9.46,clear sky
171,Ancud,CL,2022-10-28 20:17:41,-41.8697,-73.8203,51.1,73,100,13.29,light rain
172,Lyubim,RU,2022-10-28 20:21:14,58.3625,40.6843,43.57,98,100,5.88,light rain
173,Nioro,GM,2022-10-28 20:21:15,13.35,-15.75,81.97,61,100,4.76,overcast clouds
174,San Cristobal,VE,2022-10-28 20:21:15,7.7669,-72.225,75.38,59,72,4.94,broken clouds
175,Marquette,US,2022-10-28 20:17:13,46.5333,-87.6335,57.78,43,6,10.54,clear sky
176,Qaqortoq,GL,2022-10-28 20:21:16,60.7167,-46.0333,37.24,99,100,7.34,moderate rain
177,Dingle,PH,2022-10-28 20:21:17,10.9995,122.6711,75.85,97,100,21.72,moderate rain
178,Hofn,IS,2022-10-28 20:21:17,64.2539,-15.2082,39.49,74,17,9.75,few clouds
179,Santa Cruz,BO,2022-10-28 20:21:18,-17.8,-63.1667,87.85,51,75,16.11,broken clouds
180,Port Shepstone,ZA,2022-10-28 20:21:18,-30.7414,30.455,66.31,71,100,8.75,overcast clouds
181,Marsh Harbour,BS,2022-10-28 20:21:19,26.5412,-77.0636,79.97,62,2,15.23,clear sky
182,Glazov,RU,2022-10-28 20:21:19,58.1394,52.6584,31.75,96,100,8.68,light snow
183,Angoche,MZ,2022-10-28 20:21:20,-16.2325,39.9086,76.6,82,0,11.54,clear sky
184,Mbanza-Ngungu,CD,2022-10-28 20:21:20,-5.25,14.8667,69.24,95,100,4.94,overcast clouds
185,Kassala,SD,2022-10-28 20:21:21,15.451,36.4,87.89,33,16,10.67,few clouds
186,Zurrieq,MT,2022-10-28 20:22:21,35.8311,14.4742,68.97,70,9,9.53,clear sky
187,Kuito,AO,2022-10-28 20:22:22,-12.3833,16.9333,63.16,83,99,4.97,light rain
188,Touros,BR,2022-10-28 20:22:22,-5.1989,-35.4608,79.68,74,78,15.23,broken clouds
189,Vila Franca Do Campo,PT,2022-10-28 20:22:23,37.7167,-25.4333,59.2,64,2,6.71,clear sky
190,Beloha,MG,2022-10-28 20:22:23,-25.1667,45.05,71.53,85,100,6.46,overcast clouds
191,Clarence Town,AU,2022-10-28 20:22:24,-32.5833,151.7833,62.85,64,0,9.15,clear sky
192,Maldonado,UY,2022-10-28 20:18:26,-34.6667,-54.9167,76.39,54,100,1.1,overcast clouds
193,Ituporanga,BR,2022-10-28 20:22:25,-27.4144,-49.6025,81.59,59,2,2.24,clear sky
194,Saint-Louis,SN,2022-10-28 20:22:25,16.3333,-15.0,96.22,15,5,6.87,clear sky
195,Comodoro Rivadavia,AR,2022-10-28 20:22:26,-45.8667,-67.5,62.46,17,40,39.12,scattered clouds
196,Rocha,UY,2022-10-28 20:22:26,-34.4833,-54.3333,78.8,55,37,12.39,scattered clouds
197,Sambava,MG,2022-10-28 20:22:27,-14.2667,50.1667,70.34,83,15,3.8,few clouds
198,Andilamena,MG,2022-10-28 20:22:27,-17.0167,48.5833,60.84,95,34,3.15,scattered clouds
199,Kuryk,KZ,2022-10-28 20:22:28,43.2,51.65,55.9,71,99,8.41,overcast clouds
200,Hithadhoo,MV,2022-10-28 20:22:28,-0.6,73.0833,81.82,79,100,19.51,overcast clouds
201,Atbasar,KZ,2022-10-28 20:22:28,51.8,68.3333,22.91,87,98,4.7,overcast clouds
202,Alta Floresta,BR,2022-10-28 20:22:29,-9.8756,-56.0861,89.42,58,40,8.05,scattered clouds
203,Vikravandi,IN,2022-10-28 20:22:29,12.0333,79.55,73.98,86,92,6.22,overcast clouds
204,Aksarka,RU,2022-10-28 20:22:30,66.5606,67.7975,21.97,81,5,15.5,clear sky
205,Imbituba,BR,2022-10-28 20:22:30,-28.24,-48.6703,72.82,79,0,10.54,clear sky
206,Grand Gaube,MU,2022-10-28 20:22:31,-20.0064,57.6608,74.37,71,73,1.01,broken clouds
207,Kaka,TM,2022-10-28 20:22:32,37.3482,59.6143,61.54,41,13,2.86,few clouds
208,Najran,SA,2022-10-28 20:20:55,17.4924,44.1277,65.05,26,7,1.39,clear sky
209,Tazovskiy,RU,2022-10-28 20:22:32,67.4667,78.7,21.38,93,83,15.86,broken clouds
210,Nhlangano,SZ,2022-10-28 20:22:33,-27.1167,31.2,54.68,84,7,2.98,clear sky
211,Guarapari,BR,2022-10-28 20:22:33,-20.6667,-40.4975,78.89,81,3,17.31,clear sky
212,Xai-Xai,MZ,2022-10-28 20:22:34,-25.0519,33.6442,71.6,82,62,13.53,light rain
213,Khuzdar,PK,2022-10-28 20:22:34,27.7384,66.6434,67.51,17,100,3.69,overcast clouds
214,Oleksandrivka,UA,2022-10-28 20:22:35,48.9634,32.2349,49.23,81,100,6.02,overcast clouds
215,La Labor,HN,2022-10-28 20:22:35,14.4833,-89.0,85.62,40,5,4.12,clear sky
216,Husavik,IS,2022-10-28 20:22:36,66.0449,-17.3389,29.34,85,87,12.73,overcast clouds
217,Turayf,SA,2022-10-28 20:22:36,31.6725,38.6637,66.45,48,0,6.91,clear sky
218,Hamilton,US,2022-10-28 20:20:21,39.1834,-84.5333,69.64,44,0,8.05,clear sky
219,Bridlington,GB,2022-10-28 20:22:37,54.0831,-0.1919,55.02,83,74,3.0,broken clouds
220,Icatu,BR,2022-10-28 20:22:37,-2.7758,-44.0658,88.23,66,53,13.71,light rain
221,Aripuana,BR,2022-10-28 20:22:38,-9.1667,-60.6333,79.72,84,99,5.59,overcast clouds
222,Uni,RU,2022-10-28 20:22:38,57.7535,51.4923,29.01,95,82,9.22,broken clouds
223,Jesup,US,2022-10-28 20:19:51,31.6074,-81.8854,79.34,50,0,5.75,clear sky
224,Belgorod,RU,2022-10-28 20:22:39,50.61,36.58,47.03,93,75,4.47,broken clouds
225,Anna Paulowna,NL,2022-10-28 20:22:40,52.862,4.834,61.02,91,75,10.36,broken clouds
226,Kalemie,CD,2022-10-28 20:22:40,-5.9475,29.1947,74.98,70,82,6.64,broken clouds
227,Sur,OM,2022-10-28 20:22:41,22.5667,59.5289,78.64,74,0,2.48,clear sky
228,Tromso,NO,2022-10-28 20:22:41,69.6496,18.957,41.38,93,75,8.05,light intensity drizzle
229,Tougue,GN,2022-10-28 20:22:42,11.4667,-11.6,72.86,68,90,1.88,overcast clouds
230,Mayskiy,RU,2022-10-28 20:22:42,47.6931,40.1025,42.21,77,100,6.44,overcast clouds
231,Luderitz,NA,2022-10-28 20:23:43,-26.6481,15.1594,60.53,81,0,11.61,clear sky
232,San Rafael,AR,2022-10-28 20:20:41,-34.6177,-68.3301,86.07,9,98,4.23,overcast clouds
233,Harper,LR,2022-10-28 20:23:43,4.375,-7.7169,77.68,88,58,4.32,light rain
234,Adamas,GR,2022-10-28 20:23:44,36.7333,24.4333,66.33,68,11,29.35,few clouds
235,Sihora,IN,2022-10-28 20:23:44,23.4833,80.1167,64.22,60,0,2.15,clear sky
236,Ambilobe,MG,2022-10-28 20:23:45,-13.2,49.05,71.82,74,39,2.95,scattered clouds
237,Porto Real Do Colegio,BR,2022-10-28 20:23:45,-10.1858,-36.84,79.77,73,98,12.82,overcast clouds
238,Lebu,CL,2022-10-28 20:23:46,-37.6167,-73.65,55.33,99,100,8.61,overcast clouds
239,Thunder Bay,CA,2022-10-28 20:20:34,48.4001,-89.3168,58.98,47,40,17.27,scattered clouds
240,Wanparti,IN,2022-10-28 20:23:46,16.3667,78.0667,69.31,72,18,8.59,few clouds
241,Pedreira,BR,2022-10-28 20:23:47,-22.7419,-46.9014,75.87,88,82,5.19,broken clouds
242,Moose Factory,CA,2022-10-28 20:23:47,51.2585,-80.6094,57.2,47,0,20.71,clear sky
243,Gamba,GA,2022-10-28 20:23:48,-2.65,10.0,77.25,91,59,4.61,light rain
244,Hakkari,TR,2022-10-28 20:21:21,37.5833,44.1667,42.58,75,20,1.14,few clouds
245,Piacabucu,BR,2022-10-28 20:23:48,-10.4056,-36.4344,78.19,81,96,10.13,overcast clouds
246,Maragogi,BR,2022-10-28 20:23:49,-9.0122,-35.2225,78.37,74,47,9.78,scattered clouds
247,Itamaraca,BR,2022-10-28 20:23:49,-7.7478,-34.8256,80.65,72,71,11.39,broken clouds
248,Ouesso,CG,2022-10-28 20:23:50,1.6136,16.0517,70.27,95,100,1.14,overcast clouds
249,Port Hawkesbury,CA,2022-10-28 20:23:50,45.6169,-61.3485,49.59,68,0,9.22,clear sky
250,Champaign,US,2022-10-28 20:23:51,40.1334,-88.2001,63.72,50,0,10.36,clear sky
251,Kashi,CN,2022-10-28 20:23:52,39.4547,75.9797,54.61,28,95,6.71,overcast clouds
252,Tias,ES,2022-10-28 20:23:52,28.9611,-13.645,74.88,65,0,0.0,clear sky
253,Bonthe,SL,2022-10-28 20:23:53,7.5264,-12.505,78.94,85,100,5.1,overcast clouds
254,Panjab,AF,2022-10-28 20:23:53,34.388,67.0233,38.14,37,2,3.8,clear sky
255,Rochefort,FR,2022-10-28 20:23:54,45.9167,-1.0,68.92,72,100,4.0,overcast clouds
256,Balkhash,KZ,2022-10-28 20:23:54,46.844,74.9804,34.57,54,6,13.71,clear sky
257,Sao Joao Da Barra,BR,2022-10-28 20:23:54,-21.6403,-41.0511,80.69,83,64,19.37,broken clouds
258,Auray,FR,2022-10-28 20:23:55,47.6703,-2.9918,64.54,95,100,7.31,overcast clouds
259,Chitral,PK,2022-10-28 20:23:55,35.8462,71.7858,57.29,49,5,1.92,clear sky
260,Fort Wellington,GY,2022-10-28 20:23:56,6.4,-57.6,83.43,68,97,8.66,overcast clouds
261,The Valley,AI,2022-10-28 20:23:56,18.217,-63.0578,84.09,73,82,14.92,broken clouds
262,Siniscola,IT,2022-10-28 20:23:18,40.5719,9.6922,58.55,72,42,2.95,scattered clouds
263,Umba,RU,2022-10-28 20:23:57,66.6871,34.3429,37.44,98,100,11.72,moderate rain
264,Aquin,HT,2022-10-28 20:23:57,18.2833,-73.4,84.63,59,4,1.86,clear sky
265,Maputo,MZ,2022-10-28 20:23:58,-25.9653,32.5892,69.76,64,78,14.32,broken clouds
266,Saint-Georges,GD,2022-10-28 20:23:58,12.0564,-61.7485,82.08,83,75,18.41,broken clouds
267,Abalak,RU,2022-10-28 20:23:59,58.1286,68.5944,31.57,93,100,5.77,overcast clouds
268,Laguna,US,2022-10-28 20:24:01,38.421,-121.4238,75.02,33,0,5.75,clear sky
269,Pascagoula,US,2022-10-28 20:24:01,30.3658,-88.5561,79.52,70,75,6.91,broken clouds
270,Saint-Pierre,RE,2022-10-28 20:24:02,-21.3393,55.4781,72.91,73,0,6.91,clear sky
271,Boa Vista,BR,2022-10-28 20:24:03,2.8197,-60.6733,93.18,49,40,10.36,scattered clouds
272,Mudigere,IN,2022-10-28 20:24:03,13.1333,75.6333,63.01,93,7,4.92,clear sky
273,Hualmay,PE,2022-10-28 20:24:04,-11.0964,-77.6139,67.12,70,9,10.6,clear sky
274,Batsfjord,NO,2022-10-28 20:25:05,70.6345,29.7185,35.53,86,75,21.85,broken clouds
275,Zlobin,HR,2022-10-28 20:25:05,45.2924,14.6541,56.59,84,0,3.44,clear sky
276,Vestmanna,FO,2022-10-28 20:25:06,62.1564,-7.1664,47.32,87,100,18.41,light rain
277,Stromness,GB,2022-10-28 20:25:06,58.965,-3.296,52.88,82,18,13.0,few clouds
278,Ajdabiya,LY,2022-10-28 20:25:07,30.7554,20.2263,71.01,60,0,6.93,clear sky
279,Numan,NG,2022-10-28 20:25:07,9.4667,12.0333,82.65,32,100,0.65,overcast clouds
280,Nikolskoye,RU,2022-10-28 20:25:07,59.7035,30.7861,51.69,93,100,7.92,overcast clouds
281,Vestmannaeyjar,IS,2022-10-28 20:25:08,63.4427,-20.2734,42.42,77,12,8.19,few clouds
282,Polovinnoye,RU,2022-10-28 20:25:09,54.7914,65.9864,22.23,93,41,8.48,scattered clouds
283,Cap-Aux-Meules,CA,2022-10-28 20:25:10,47.3821,-61.8597,44.65,61,20,11.5,few clouds
284,Matagami,CA,2022-10-28 20:25:10,49.7502,-77.6328,46.51,76,40,13.8,scattered clouds
285,Luanda,AO,2022-10-28 20:22:13,-8.8368,13.2343,77.0,83,40,8.05,scattered clouds
286,Iracoubo,GF,2022-10-28 20:25:14,5.4802,-53.2011,82.56,77,11,10.92,few clouds
287,Fredericton,CA,2022-10-28 20:25:16,45.9454,-66.6656,49.24,44,0,4.61,clear sky
288,Oksfjord,NO,2022-10-28 20:25:16,70.2396,22.3479,42.98,97,100,9.17,overcast clouds
289,Sawakin,SD,2022-10-28 20:25:17,19.1059,37.3321,84.67,69,45,5.66,scattered clouds
290,Lieksa,FI,2022-10-28 20:25:18,63.3167,30.0167,45.39,94,100,11.3,overcast clouds
291,Sao Filipe,CV,2022-10-28 20:25:18,14.8961,-24.4956,80.96,68,81,7.54,broken clouds
292,Tabora,TZ,2022-10-28 20:25:19,-5.0167,32.8,78.49,24,87,4.41,overcast clouds
293,Krasnaya Gorka,RU,2022-10-28 20:25:20,55.1962,56.6673,31.59,73,99,4.21,overcast clouds
294,Ayagoz,KZ,2022-10-28 20:25:20,47.9714,80.4392,22.51,86,8,8.77,clear sky
295,Kavaratti,IN,2022-10-28 20:25:21,10.5669,72.642,81.43,65,59,6.08,broken clouds
296,La Serena,CL,2022-10-28 20:25:22,-29.9078,-71.2542,58.51,77,40,11.5,scattered clouds
297,Baracoa,CU,2022-10-28 20:25:22,20.3467,-74.4958,82.8,65,4,6.85,clear sky
298,Banepa,NP,2022-10-28 20:25:23,27.6298,85.5214,57.52,88,40,2.3,scattered clouds
299,Atenas De San Cristobal,HN,2022-10-28 20:25:23,15.6833,-87.3167,87.66,62,40,9.22,scattered clouds
300,Mahibadhoo,MV,2022-10-28 20:25:24,3.7833,72.9667,80.1,81,100,8.93,overcast clouds
301,Caapucu,PY,2022-10-28 20:25:24,-26.2167,-57.2,82.69,68,95,4.65,overcast clouds
302,Mstera,RU,2022-10-28 20:25:25,56.3789,41.92,40.03,93,100,8.5,overcast clouds
303,Effingham,US,2022-10-28 20:25:26,32.3669,-81.3332,77.45,77,9,10.96,clear sky
304,Karpathos,GR,2022-10-28 20:25:26,35.507,27.2132,67.96,77,0,14.97,clear sky
305,Cagli,IT,2022-10-28 20:25:27,43.5457,12.6527,62.76,82,17,3.44,mist
306,Chuy,UY,2022-10-28 20:25:27,-33.6971,-53.4616,77.52,51,0,8.68,clear sky
307,Marrakesh,MA,2022-10-28 20:25:28,31.6315,-8.0083,80.67,21,0,5.75,clear sky
308,Salinas,US,2022-10-28 20:25:29,36.6777,-121.6555,72.0,50,0,5.75,clear sky
309,Aljezur,PT,2022-10-28 20:25:29,37.3191,-8.8033,66.83,89,100,8.59,overcast clouds
310,Tabatinga,BR,2022-10-28 20:25:30,-4.2525,-69.9381,86.09,74,75,5.75,very heavy rain
311,Krasnokholmskiy,RU,2022-10-28 20:25:30,55.9873,55.0466,29.88,94,85,4.65,overcast clouds
312,Kovur,IN,2022-10-28 20:25:31,14.4833,79.9833,76.95,80,67,7.16,broken clouds
313,Songea,TZ,2022-10-28 20:25:31,-10.6833,35.65,66.04,47,0,3.11,clear sky
314,San Vicente,AR,2022-10-28 20:25:31,-26.6167,-54.1333,84.24,42,1,3.06,clear sky
315,Asosa,ET,2022-10-28 20:25:32,10.0667,34.5333,61.52,88,81,4.29,broken clouds
316,Mgandu,TZ,2022-10-28 20:25:34,-5.95,34.1333,71.67,28,10,10.07,clear sky
317,Saint George,US,2022-10-28 20:22:08,37.1041,-113.5841,66.43,20,0,3.44,clear sky
318,Tucuman,AR,2022-10-28 20:25:34,-26.8241,-65.2226,95.0,23,0,5.75,clear sky
319,Zhezkazgan,KZ,2022-10-28 20:25:35,47.8043,67.7144,29.97,55,100,9.89,overcast clouds
320,Vardo,NO,2022-10-28 20:26:35,70.3705,31.1107,33.78,86,0,18.41,clear sky
321,Muana,BR,2022-10-28 20:26:35,-1.5283,-49.2167,93.22,41,56,6.38,broken clouds
322,Ordzhonikidze,KZ,2022-10-28 20:26:36,52.4411,61.7408,15.93,87,57,6.08,broken clouds
323,Roros,NO,2022-10-28 20:26:37,62.5747,11.3842,35.44,100,20,0.0,few clouds
324,Birao,CF,2022-10-28 20:26:37,10.2849,22.7882,79.16,31,100,4.76,overcast clouds
325,Teguise,ES,2022-10-28 20:26:38,29.0605,-13.564,73.62,65,0,0.0,clear sky
326,Seydi,TM,2022-10-28 20:26:38,39.4816,62.9137,55.92,43,17,2.8,few clouds
327,Miastko,PL,2022-10-28 20:26:38,54.0028,16.9826,58.28,80,88,7.9,overcast clouds
328,Neusiedl Am See,AT,2022-10-28 20:26:40,47.9357,16.8325,56.26,85,16,4.29,few clouds
329,Korla,CN,2022-10-28 20:26:41,41.7597,86.1469,51.35,37,57,7.36,broken clouds
330,Banda Aceh,ID,2022-10-28 20:26:41,5.5577,95.3222,78.58,83,100,7.27,overcast clouds
331,Koundara,GN,2022-10-28 20:26:41,12.4833,-13.3,82.65,59,100,2.84,overcast clouds
332,Dalbandin,PK,2022-10-28 20:26:42,28.8947,64.4101,70.23,17,45,5.59,scattered clouds
333,Ornskoldsvik,SE,2022-10-28 20:26:42,63.2909,18.7153,36.55,100,75,4.61,broken clouds
334,Qasigiannguit,GL,2022-10-28 20:26:43,68.8193,-51.1922,37.36,100,100,7.31,light rain
335,San Pedro,PH,2022-10-28 20:26:43,14.35,121.0167,76.23,95,100,12.66,moderate rain
336,Edgemere,US,2022-10-28 20:26:43,39.2421,-76.448,60.49,66,0,10.0,clear sky
337,Abu Dhabi,AE,2022-10-28 20:26:44,24.4667,54.3667,80.96,73,0,2.3,clear sky
338,Geraldton,AU,2022-10-28 20:26:45,-28.7667,114.6,63.01,88,75,19.57,light rain
339,Bunia,CD,2022-10-28 20:26:45,1.5667,30.25,63.75,96,100,3.2,light rain
340,Marzuq,YE,2022-10-28 20:26:45,14.4,46.4667,65.75,45,0,1.97,clear sky
341,Hearst,CA,2022-10-28 20:26:46,49.6835,-83.6665,55.65,59,15,15.93,few clouds
342,Mandra,GR,2022-10-28 20:26:46,38.0667,23.5,66.04,49,20,4.61,few clouds
343,Wad Rawah,SD,2022-10-28 20:26:47,15.1603,33.1397,90.09,29,8,9.22,clear sky
344,Aras,ES,2022-10-28 20:26:47,42.5617,-2.356,66.61,56,0,5.75,clear sky
345,Miloslavskoye,RU,2022-10-28 20:26:48,53.5815,39.4399,41.05,93,99,7.9,overcast clouds
346,Weligama,LK,2022-10-28 20:26:49,5.9667,80.4167,75.74,86,17,4.47,few clouds
347,Salinopolis,BR,2022-10-28 20:26:49,-0.6136,-47.3561,82.65,73,97,14.81,overcast clouds
348,Riberalta,BO,2022-10-28 20:26:50,-10.9833,-66.1,79.0,83,100,6.91,overcast clouds
349,Sosnogorsk,RU,2022-10-28 20:26:51,63.6023,53.8817,22.48,97,87,4.79,overcast clouds
350,Namyslow,PL,2022-10-28 20:26:51,51.0759,17.7228,52.32,69,15,9.6,few clouds
351,Svetlogorsk,BY,2022-10-28 20:26:52,52.6333,29.7333,47.97,96,97,5.48,overcast clouds
352,Nalut,LY,2022-10-28 20:26:53,30.3333,10.85,70.95,29,0,10.63,clear sky
353,Codrington,AU,2022-10-28 20:26:54,-38.2667,141.9667,48.7,89,93,9.6,overcast clouds
354,Nova Granada,BR,2022-10-28 20:26:54,-20.5339,-49.3142,84.45,58,95,9.71,overcast clouds
355,Talcahuano,CL,2022-10-28 20:26:55,-36.7167,-73.1167,56.88,100,100,10.36,overcast clouds
356,Gornopravdinsk,RU,2022-10-28 20:26:55,60.05,69.9,27.88,95,97,5.1,overcast clouds
357,Nantucket,US,2022-10-28 20:26:56,41.2835,-70.0995,53.74,83,84,22.12,broken clouds
358,Beira,MZ,2022-10-28 20:26:56,-19.8436,34.8389,77.59,83,48,9.82,scattered clouds
359,Grindavik,IS,2022-10-28 20:26:56,63.8424,-22.4338,37.35,93,75,6.91,broken clouds
360,Viedma,AR,2022-10-28 20:26:57,-40.8135,-62.9967,71.46,22,93,10.78,overcast clouds
361,Miandoab,IR,2022-10-28 20:26:57,36.9694,46.1027,56.57,64,53,3.15,broken clouds
362,Killybegs,IE,2022-10-28 20:26:58,54.6333,-8.45,54.5,87,96,15.1,overcast clouds
363,Richards Bay,ZA,2022-10-28 20:26:58,-28.783,32.0377,68.94,65,100,10.18,overcast clouds
364,Camacupa,AO,2022-10-28 20:26:59,-12.0167,17.4833,64.53,88,100,2.86,light rain
365,Scarborough,GB,2022-10-28 20:25:08,54.2797,-0.4044,54.66,82,71,8.99,broken clouds
366,Akureyri,IS,2022-10-28 20:27:00,65.6835,-18.0878,28.33,86,0,3.44,clear sky
367,Sao Joaquim,BR,2022-10-28 20:27:01,-28.2939,-49.9317,68.86,53,0,2.86,clear sky
368,Chapais,CA,2022-10-28 20:27:02,49.7834,-74.8492,44.38,64,100,13.31,overcast clouds
369,Muscat,OM,2022-10-28 20:28:02,23.6139,58.5922,77.02,54,0,2.82,clear sky
370,Buchanan,LR,2022-10-28 20:28:03,5.8808,-10.0467,77.68,88,73,3.38,moderate rain
371,Giyon,ET,2022-10-28 20:28:03,8.5333,37.9833,54.91,50,52,10.87,broken clouds
372,Anloga,GH,2022-10-28 20:28:04,5.7947,0.8973,81.01,80,100,9.06,light rain
373,Natal,BR,2022-10-28 20:26:24,-5.795,-35.2094,81.25,74,40,17.27,scattered clouds
374,Talara,PE,2022-10-28 20:28:05,-4.5772,-81.2719,70.56,68,0,13.8,clear sky
375,Cockburn Town,TC,2022-10-28 20:28:05,21.4612,-71.1419,82.36,69,40,4.61,scattered clouds
376,Mulanje,MW,2022-10-28 20:28:06,-16.0316,35.5,78.78,39,29,5.73,scattered clouds
377,Falmouth,GB,2022-10-28 20:28:06,50.1544,-5.0711,58.1,94,75,6.91,mist
378,Boden,SE,2022-10-28 20:28:07,65.8252,21.6886,37.4,93,21,3.94,few clouds
379,Plastunovskaya,RU,2022-10-28 20:28:07,45.2939,39.2669,50.9,80,9,2.48,clear sky
380,Betsiamites,CA,2022-10-28 20:28:08,48.9413,-68.646,45.0,65,0,17.05,clear sky
381,Aguimes,ES,2022-10-28 20:28:08,27.9054,-15.4461,72.23,88,0,9.22,clear sky
382,Papagaios,BR,2022-10-28 20:28:09,-19.4492,-44.7478,91.42,23,31,4.94,scattered clouds
383,Sioux Lookout,CA,2022-10-28 20:28:09,50.1001,-91.917,57.27,47,75,16.11,broken clouds
384,Tabou,CI,2022-10-28 20:28:10,4.423,-7.3528,77.38,89,62,4.16,light rain
385,Taperoa,BR,2022-10-28 20:28:10,-7.2075,-36.8267,88.45,29,10,17.13,clear sky
386,Presidencia Roque Saenz Pena,AR,2022-10-28 20:28:11,-26.7852,-60.4388,86.49,49,67,11.36,broken clouds
387,Margate,GB,2022-10-28 20:28:12,51.3813,1.3862,56.3,86,100,1.99,overcast clouds
388,Lac-Megantic,CA,2022-10-28 20:28:12,45.5834,-70.8823,48.51,43,63,3.06,broken clouds
389,Passo De Camaragibe,BR,2022-10-28 20:28:13,-9.2368,-35.4901,80.15,76,29,6.69,scattered clouds
390,Idritsa,RU,2022-10-28 20:28:13,56.3316,28.8988,49.91,92,96,6.29,overcast clouds
391,Hidiselu De Sus,RO,2022-10-28 20:28:14,46.95,22.05,48.76,100,100,2.3,fog
392,Westport,US,2022-10-28 20:24:05,41.1415,-73.3579,58.19,42,0,5.75,clear sky
393,Kamenka,RU,2022-10-28 20:28:15,51.3223,42.7678,36.54,88,100,5.91,overcast clouds
394,Chor,PK,2022-10-28 20:28:15,25.5167,69.7667,78.49,47,77,8.68,broken clouds
395,Kembe,CF,2022-10-28 20:28:16,4.6228,21.8865,70.68,93,100,3.02,overcast clouds
396,Maralal,KE,2022-10-28 20:28:16,1.0968,36.698,61.95,80,89,9.28,light rain
397,Lighthouse Point,US,2022-10-28 20:28:17,26.2756,-80.0873,87.03,66,20,12.66,few clouds
398,Marystown,CA,2022-10-28 20:28:17,47.1666,-55.1483,48.96,47,0,17.63,clear sky
399,Gambela,ET,2022-10-28 20:28:18,8.25,34.5833,74.61,79,100,3.91,overcast clouds
400,Perivolion,GR,2022-10-28 20:28:19,39.4206,20.0147,64.58,70,0,8.39,clear sky
401,Puerto Varas,CL,2022-10-28 20:28:19,-41.3195,-72.9854,53.82,62,100,6.91,overcast clouds
402,Puerto Leguizamo,CO,2022-10-28 20:28:21,-0.1934,-74.7819,81.55,80,100,1.66,heavy intensity rain
403,Marsa Matruh,EG,2022-10-28 20:24:04,31.3525,27.2453,71.8,68,20,6.91,few clouds
404,Raudeberg,NO,2022-10-28 20:28:22,61.9875,5.1352,55.87,1,100,6.82,light rain
405,Guaruja,BR,2022-10-28 20:28:22,-23.9931,-46.2564,78.84,78,75,6.91,broken clouds
406,Lubao,PH,2022-10-28 20:28:23,14.9167,120.55,78.51,74,100,15.32,very heavy rain
407,Paita,PE,2022-10-28 20:28:23,-5.0892,-81.1144,69.15,71,34,15.01,scattered clouds
408,Road Town,VG,2022-10-28 20:28:23,18.4167,-64.6167,86.09,74,40,9.22,scattered clouds
409,Lusambo,CD,2022-10-28 20:28:24,-4.9667,23.45,71.2,93,100,1.28,light rain
410,Magugu,TZ,2022-10-28 20:28:24,-4.0167,35.7667,72.66,36,42,2.68,scattered clouds
411,Uyuni,BO,2022-10-28 20:28:25,-20.4597,-66.825,60.12,4,0,15.08,clear sky
412,Rawah,IQ,2022-10-28 20:28:25,34.4816,41.9093,70.72,30,0,8.93,clear sky
413,Jalu,LY,2022-10-28 20:28:26,29.0331,21.5482,70.52,37,0,6.8,clear sky
414,Kerman,IR,2022-10-28 20:29:27,30.2832,57.0788,53.46,28,0,4.61,clear sky
415,Beberibe,BR,2022-10-28 20:29:27,-4.1797,-38.1306,80.26,76,96,14.14,overcast clouds
416,Rio Gallegos,AR,2022-10-28 20:29:28,-51.6226,-69.2181,48.25,29,40,36.82,scattered clouds
417,Nicoya,CR,2022-10-28 20:29:28,10.1483,-85.452,84.34,69,16,2.35,few clouds
418,Adre,TD,2022-10-28 20:29:29,13.4667,22.2,78.3,19,37,11.12,scattered clouds
419,Surt,LY,2022-10-28 20:29:29,31.2089,16.5887,73.0,68,16,13.94,few clouds
420,Dovolnoye,RU,2022-10-28 20:29:30,54.4958,79.6671,27.72,76,99,15.9,overcast clouds
421,Constantine,DZ,2022-10-28 20:27:57,36.365,6.6147,67.41,34,0,1.14,clear sky
422,Alegrete,BR,2022-10-28 20:26:16,-29.7831,-55.7919,82.58,31,0,2.93,clear sky
423,Oranjestad,AW,2022-10-28 20:29:30,12.524,-70.027,85.95,71,40,11.5,scattered clouds
424,Camana,PE,2022-10-28 20:29:31,-16.6228,-72.7111,65.55,73,12,9.57,few clouds
425,Krasnoselkup,RU,2022-10-28 20:29:31,65.7,82.4667,23.72,96,100,10.29,light snow
426,Hare Bay,CA,2022-10-28 20:29:32,48.8499,-54.0148,45.75,48,0,14.2,clear sky
427,Mingaora,PK,2022-10-28 20:29:33,34.7758,72.3625,60.1,48,0,5.39,clear sky
428,Turukhansk,RU,2022-10-28 20:29:33,65.8167,87.9833,19.72,93,100,16.06,light snow
429,Bom Jesus,BR,2022-10-28 20:29:34,-9.0744,-44.3586,84.99,51,100,3.67,overcast clouds
430,Tonj,SS,2022-10-28 20:29:34,7.2737,28.6822,77.23,67,94,1.19,overcast clouds
431,Mabaruma,GY,2022-10-28 20:29:35,8.2,-59.7833,79.11,86,94,4.27,overcast clouds
432,Brattvag,NO,2022-10-28 20:29:35,62.6002,6.4434,55.44,94,75,5.75,light rain
433,Susehri,TR,2022-10-28 20:29:35,40.1644,38.0867,43.02,83,19,3.09,few clouds
434,Cambui,BR,2022-10-28 20:29:36,-22.6122,-46.0575,76.64,64,84,1.7,broken clouds
435,Lerwick,GB,2022-10-28 20:29:36,60.1545,-1.1494,53.31,86,90,29.01,overcast clouds
436,Kilindoni,TZ,2022-10-28 20:29:37,-7.9139,39.6668,76.91,84,96,12.41,overcast clouds
437,Lodwar,KE,2022-10-28 20:29:37,3.1191,35.5973,82.42,55,21,17.67,few clouds
438,Sabha,LY,2022-10-28 20:29:38,27.0377,14.4283,69.21,42,0,8.68,clear sky
439,Cerro Largo,BR,2022-10-28 20:29:38,-28.1486,-54.7381,85.19,34,0,1.74,clear sky
440,Itarema,BR,2022-10-28 20:29:39,-2.9248,-39.9167,80.73,74,65,18.12,broken clouds
441,Lima,PE,2022-10-28 20:28:32,-12.0432,-77.0282,66.9,72,100,10.36,overcast clouds
442,Arona,ES,2022-10-28 20:29:39,28.0996,-16.681,73.9,67,0,1.14,clear sky
443,Barbosa Ferraz,BR,2022-10-28 20:29:40,-24.03,-52.0117,82.6,64,88,2.93,overcast clouds
444,Zonguldak,TR,2022-10-28 20:29:40,41.25,31.8333,44.04,93,0,2.73,clear sky
445,Radece,SI,2022-10-28 20:29:40,46.0681,15.1839,53.73,91,60,1.9,broken clouds
446,Elesbao Veloso,BR,2022-10-28 20:29:41,-6.2019,-42.1403,97.84,23,98,4.5,overcast clouds
447,Akdepe,TM,2022-10-28 20:29:41,42.0551,59.3788,46.49,46,0,7.36,clear sky
448,Nacala,MZ,2022-10-28 20:29:42,-14.5428,40.6728,74.44,90,0,7.65,clear sky
449,Mana,GF,2022-10-28 20:29:42,5.6592,-53.7767,82.8,75,19,10.76,few clouds
450,Vuktyl,RU,2022-10-28 20:29:43,63.8567,57.3094,21.74,99,95,5.5,overcast clouds
451,Chicama,PE,2022-10-28 20:29:43,-7.8447,-79.1469,63.14,60,24,10.16,few clouds
452,Tarko-Sale,RU,2022-10-28 20:29:43,64.9225,77.785,14.88,89,13,11.39,few clouds
453,Male,MV,2022-10-28 20:29:44,4.1748,73.5089,80.55,83,75,3.44,broken clouds
454,Roald,NO,2022-10-28 20:29:44,62.5833,6.1333,55.9,94,75,5.75,light rain
455,Nouadhibou,MR,2022-10-28 20:29:45,20.931,-17.0347,75.18,57,0,12.66,clear sky
456,Coyah,GN,2022-10-28 20:29:45,9.75,-13.4167,80.44,88,98,3.67,light rain
457,Eyl,SO,2022-10-28 20:29:46,7.9803,49.8164,79.09,79,21,10.49,few clouds
458,Opuwo,NA,2022-10-28 20:29:46,-18.0607,13.84,79.34,27,85,8.75,overcast clouds
459,Zelenogorskiy,RU,2022-10-28 20:29:47,55.0333,87.0,25.77,77,17,7.99,few clouds
460,Acarau,BR,2022-10-28 20:29:48,-2.8856,-40.12,81.25,73,74,20.27,broken clouds
461,Bud,US,2022-10-28 20:30:49,39.447,-86.1758,66.15,54,0,7.27,clear sky
462,Baglung,NP,2022-10-28 20:30:50,28.2719,83.5898,56.1,77,0,5.57,clear sky
463,Gameza,CO,2022-10-28 20:30:50,5.8026,-72.8059,56.55,88,90,3.71,overcast clouds
464,Lasa,IT,2022-10-28 20:30:50,46.6166,10.7002,56.28,66,17,2.28,few clouds
465,Vikulovo,RU,2022-10-28 20:30:51,56.8167,70.6107,30.38,82,92,8.55,overcast clouds
466,Usinsk,RU,2022-10-28 20:30:10,65.9939,57.5281,15.31,96,75,8.41,broken clouds
467,Uniao,BR,2022-10-28 20:30:51,-4.5858,-42.8642,90.99,29,100,2.86,overcast clouds
468,Nuuk,GL,2022-10-28 20:30:52,64.1835,-51.7216,36.21,93,100,27.63,light snow
469,Quelimane,MZ,2022-10-28 20:30:53,-17.8786,36.8883,76.73,85,56,7.23,broken clouds
470,Ampanihy,MG,2022-10-28 20:30:53,-24.7,44.75,69.87,84,100,4.61,overcast clouds
471,Mananjary,MG,2022-10-28 20:30:54,-21.2167,48.3333,74.05,72,100,12.37,overcast clouds
472,Marabba,SD,2022-10-28 20:30:54,12.35,32.1833,90.68,33,55,11.88,broken clouds
473,Luau,AO,2022-10-28 20:30:55,-10.7073,22.2247,69.13,80,100,4.36,overcast clouds
474,Narsaq,GL,2022-10-28 20:30:55,60.9167,-46.05,32.22,100,100,2.53,snow
475,Nurota,UZ,2022-10-28 20:30:56,40.5614,65.6886,56.01,49,63,2.89,broken clouds
476,Udayagiri,IN,2022-10-28 20:30:56,20.1333,84.3833,60.8,71,0,3.36,clear sky
477,Gabu,GW,2022-10-28 20:30:57,12.2833,-14.2167,81.63,66,100,3.69,overcast clouds
478,Ambikapur,IN,2022-10-28 20:30:57,23.1167,83.2,59.45,61,0,1.99,clear sky
479,Evansville,US,2022-10-28 20:27:31,37.9748,-87.5558,71.19,44,0,5.75,clear sky
480,Svetlyy,RU,2022-10-28 20:30:58,54.675,20.1347,55.45,88,54,10.56,broken clouds
481,Grand-Santi,GF,2022-10-28 20:30:58,4.25,-54.3833,82.72,67,48,5.12,scattered clouds
482,Voi,KE,2022-10-28 20:30:59,-3.3945,38.563,69.55,85,44,5.86,scattered clouds
483,Kikwit,CD,2022-10-28 20:30:59,-5.041,18.8162,70.52,97,100,1.41,overcast clouds
484,Valparaiso,CL,2022-10-28 20:27:25,-33.0393,-71.6273,71.83,65,0,13.8,clear sky
485,Totma,RU,2022-10-28 20:31:00,59.9747,42.7642,41.88,98,100,8.03,overcast clouds
486,Guhagar,IN,2022-10-28 20:31:04,17.4842,73.1929,70.92,59,0,6.22,clear sky
487,Srostki,RU,2022-10-28 20:31:05,52.4189,85.7022,27.63,85,19,5.55,few clouds
488,Kalininsk,RU,2022-10-28 20:31:05,51.5,44.4758,35.6,93,100,6.82,overcast clouds
489,Isabela,PH,2022-10-28 20:31:06,6.7085,121.9711,77.79,91,100,6.96,overcast clouds
490,Francistown,BW,2022-10-28 20:31:06,-21.17,27.5079,70.97,66,0,24.07,clear sky
491,Boali,CF,2022-10-28 20:31:07,4.8005,18.1275,74.84,89,100,2.75,overcast clouds
492,Bardiyah,LY,2022-10-28 20:31:07,31.7561,25.0865,69.3,66,0,4.54,clear sky
493,Port-Gentil,GA,2022-10-28 20:27:11,-0.7193,8.7815,75.16,100,100,3.44,thunderstorm with light rain
494,Garissa,KE,2022-10-28 20:31:08,-0.4536,39.6401,78.48,66,3,14.38,clear sky
495,Impfondo,CG,2022-10-28 20:31:09,1.6381,18.0667,70.34,98,97,3.2,overcast clouds
496,Choma,ZM,2022-10-28 20:31:09,-16.8065,26.9531,71.46,42,31,4.59,scattered clouds
497,Kolarovo,SK,2022-10-28 20:31:10,47.9229,17.9847,59.11,98,37,3.47,scattered clouds
498,Quatre Cocos,MU,2022-10-28 20:31:10,-20.2078,57.7625,74.08,78,82,11.68,light rain
499,Norilsk,RU,2022-10-28 20:31:11,69.3535,88.2027,20.43,86,100,13.02,overcast clouds
500,Santiago,CL,2022-10-28 20:28:39,-33.4569,-70.6483,80.55,31,75,16.11,broken clouds
501,Savannah Bight,HN,2022-10-28 20:31:12,16.45,-85.85,82.45,69,24,8.39,few clouds
502,Baherden,TM,2022-10-28 20:31:12,38.4362,57.4316,61.34,49,25,1.01,scattered clouds
503,Abha,SA,2022-10-28 20:31:12,18.2164,42.5053,58.82,94,0,0.0,clear sky
504,Jorochito,BO,2022-10-28 20:31:13,-18.05,-63.4333,86.32,46,40,10.98,scattered clouds
505,Kharp,RU,2022-10-28 20:31:13,66.8014,65.8081,15.69,90,36,7.16,scattered clouds
506,Ayna,PE,2022-10-28 20:32:14,-12.65,-73.9167,76.17,58,61,4.85,broken clouds
507,Labytnangi,RU,2022-10-28 20:32:15,66.6572,66.4183,19.36,86,17,9.17,few clouds
508,Gayeri,BF,2022-10-28 20:32:15,12.6497,0.4931,81.63,20,4,8.08,clear sky
509,Anzio,IT,2022-10-28 20:32:16,41.4853,12.6179,71.01,71,4,2.84,clear sky
510,Reconquista,AR,2022-10-28 20:32:16,-29.15,-59.65,88.56,22,0,8.77,clear sky
511,Moura,PT,2022-10-28 20:32:17,38.1401,-7.4486,66.31,65,100,9.73,overcast clouds
512,Vizinga,RU,2022-10-28 20:32:17,61.0749,50.1031,35.98,98,100,7.7,overcast clouds
513,Kralendijk,BQ,2022-10-28 20:32:18,12.15,-68.2667,82.38,83,0,2.3,clear sky
514,San Ignacio,BZ,2022-10-28 20:32:18,17.1561,-89.0714,93.34,49,40,4.61,scattered clouds
515,Kentau,KZ,2022-10-28 20:32:19,43.5206,68.5094,45.05,49,39,2.44,scattered clouds
516,Keti Bandar,PK,2022-10-28 20:32:19,24.1447,67.4497,78.76,64,21,7.76,few clouds
517,Hanko,FI,2022-10-28 20:32:20,59.8333,22.95,53.06,94,100,12.24,overcast clouds
518,Ludwigslust,DE,2022-10-28 20:32:21,53.3167,11.5,61.2,77,100,8.12,overcast clouds
519,Farafangana,MG,2022-10-28 20:32:21,-22.8167,47.8333,72.23,83,84,9.08,broken clouds
520,Pitimbu,BR,2022-10-28 20:32:22,-7.4706,-34.8086,81.19,77,68,11.95,broken clouds
521,Cochrane,CA,2022-10-28 20:32:22,51.1834,-114.4687,53.91,45,0,17.27,clear sky
522,Piranshahr,IR,2022-10-28 20:32:23,36.701,45.1413,52.2,66,6,0.83,clear sky
523,Mahuva,IN,2022-10-28 20:32:23,21.0914,71.7622,79.56,41,0,7.47,clear sky
524,Bonavista,CA,2022-10-28 20:32:24,48.6499,-53.1147,45.57,53,4,26.02,clear sky
525,Gobabis,NA,2022-10-28 20:32:24,-22.45,18.9667,81.21,15,2,5.14,clear sky
526,Langres,FR,2022-10-28 20:32:26,47.8333,5.3333,59.67,81,98,6.11,overcast clouds
527,Saint Andrews,US,2022-10-28 20:32:27,34.0454,-81.1293,73.49,50,40,10.36,scattered clouds
528,Andra,RU,2022-10-28 20:32:27,62.5147,65.8878,18.99,96,33,3.6,scattered clouds
529,Santa Vitoria Do Palmar,BR,2022-10-28 20:32:28,-33.5189,-53.3681,72.64,60,0,7.38,clear sky
530,Sistranda,NO,2022-10-28 20:32:28,63.7256,8.834,49.96,95,100,10.13,light rain
531,Shakiso,ET,2022-10-28 20:32:31,5.75,38.9167,59.67,84,93,2.35,overcast clouds
532,Khorixas,NA,2022-10-28 20:32:32,-20.3667,14.9667,74.61,20,2,1.86,clear sky
533,Kibaya,TZ,2022-10-28 20:32:32,-5.3,36.5667,61.81,64,95,4.81,overcast clouds
534,Afogados Da Ingazeira,BR,2022-10-28 20:32:33,-7.7508,-37.6392,87.01,28,30,13.02,scattered clouds
535,Ponta Delgada,PT,2022-10-28 20:32:34,37.7333,-25.6667,59.5,72,20,5.75,few clouds
536,Zenzeli,RU,2022-10-28 20:32:34,45.9241,47.0474,47.95,79,100,14.56,overcast clouds
537,Brae,GB,2022-10-28 20:32:35,60.3964,-1.353,52.93,86,90,25.84,overcast clouds
538,Porto De Moz,BR,2022-10-28 20:32:35,-1.7483,-52.2383,88.66,44,100,3.2,overcast clouds
539,Pathanamthitta,IN,2022-10-28 20:32:35,9.2667,76.7833,77.74,92,81,1.99,broken clouds
540,Lapa,BR,2022-10-28 20:32:36,-25.7697,-49.7158,67.21,85,40,4.72,scattered clouds
541,Karpogory,RU,2022-10-28 20:32:36,64.0019,44.4451,33.08,98,100,6.35,light snow
542,Panguipulli,CL,2022-10-28 20:32:37,-39.6333,-72.3333,51.53,100,100,3.33,heavy intensity rain
543,Redan,US,2022-10-28 20:32:37,33.7454,-84.1316,70.38,57,100,9.01,overcast clouds
544,Nova Olimpia,BR,2022-10-28 20:32:38,-14.7972,-57.2881,90.03,48,89,5.97,overcast clouds
545,San Juan,AR,2022-10-28 20:27:41,-31.5375,-68.5364,94.24,6,8,7.16,clear sky
546,Forestville,US,2022-10-28 20:32:38,38.8451,-76.875,59.63,68,75,9.22,broken clouds
547,Honavar,IN,2022-10-28 20:32:39,14.2833,74.45,78.85,65,100,3.96,overcast clouds
548,Itigi,TZ,2022-10-28 20:32:39,-5.7,34.4833,73.0,34,35,11.27,scattered clouds
549,Padang,ID,2022-10-28 20:29:53,-0.9492,100.3543,76.19,86,100,2.71,light rain
550,Savelugu,GH,2022-10-28 20:32:40,9.6244,-0.8253,81.9,29,68,5.21,broken clouds
551,Bull Savanna,JM,2022-10-28 20:32:40,17.8868,-77.5902,80.94,65,27,4.32,scattered clouds
552,Zwedru,LR,2022-10-28 20:32:41,6.0667,-8.1281,73.04,97,61,2.71,broken clouds
553,Kulu,TR,2022-10-28 20:32:41,39.0951,33.0799,48.42,50,75,7.83,broken clouds
554,Praia,CV,2022-10-28 20:33:41,14.9215,-23.5087,82.94,42,0,13.8,clear sky
555,Aksu,CN,2022-10-28 20:33:42,41.1231,80.2644,48.99,35,61,2.33,broken clouds
556,Pietersburg,ZA,2022-10-28 20:33:42,-23.9045,29.4688,59.85,77,4,14.97,clear sky
557,Port Blair,IN,2022-10-28 20:33:43,11.6667,92.75,80.76,80,77,9.53,broken clouds
558,Lyuban,BY,2022-10-28 20:33:43,52.7985,28.0048,48.36,96,42,5.77,scattered clouds
559,Zanzibar,TZ,2022-10-28 20:33:44,-6.1639,39.1979,72.99,92,75,4.0,broken clouds
560,West Bay,KY,2022-10-28 20:33:44,19.3667,-81.4167,87.87,74,40,13.8,scattered clouds
561,Shalya,RU,2022-10-28 20:33:45,57.2471,58.7298,28.33,94,96,6.51,overcast clouds
562,Maniitsoq,GL,2022-10-28 20:33:45,65.4167,-52.9,35.91,99,100,23.09,light rain
563,Khorlovo,RU,2022-10-28 20:33:46,55.3353,38.8131,46.02,96,100,7.9,light rain
564,Kudahuvadhoo,MV,2022-10-28 20:33:47,2.6708,72.8944,80.67,83,96,18.34,moderate rain
565,Kiruna,SE,2022-10-28 20:33:47,67.8557,20.2251,23.92,93,100,3.44,overcast clouds
566,Mineiros,BR,2022-10-28 20:29:20,-17.5694,-52.5511,85.91,42,56,4.7,broken clouds
567,Yuzhno-Sukhokumsk,RU,2022-10-28 20:33:48,44.6581,45.6436,48.34,71,94,12.66,overcast clouds
568,Khorramshahr,IR,2022-10-28 20:33:48,30.4397,48.1664,78.76,89,59,6.91,mist
569,Radyvyliv,UA,2022-10-28 20:33:49,50.1299,25.2558,50.43,85,13,6.42,few clouds
570,Thompson,CA,2022-10-28 20:33:49,55.7435,-97.8558,46.56,53,20,18.41,few clouds
571,Kangaatsiaq,GL,2022-10-28 20:33:50,68.3065,-53.4641,36.77,98,100,12.77,light rain
572,Rabo De Peixe,PT,2022-10-28 20:33:50,37.8,-25.5833,58.28,93,20,5.75,few clouds
573,Yar-Sale,RU,2022-10-28 20:33:51,66.8333,70.8333,22.01,79,29,18.23,scattered clouds
574,Harare,ZW,2022-10-28 20:33:51,-17.8294,31.0539,63.82,78,54,5.68,broken clouds
575,Le Port,RE,2022-10-28 20:33:52,-20.9373,55.2919,73.36,62,18,6.22,few clouds
576,Solvychegodsk,RU,2022-10-28 20:33:52,61.3305,46.9156,40.19,95,100,8.34,overcast clouds
577,Iralaya,HN,2022-10-28 20:33:53,15.0,-83.2333,83.61,68,16,5.97,light rain
578,Maku,IR,2022-10-28 20:33:53,39.2911,44.4521,54.21,40,20,9.22,few clouds
579,Huarmey,PE,2022-10-28 20:33:54,-10.0681,-78.1522,66.65,74,7,9.95,clear sky
580,Dinard,FR,2022-10-28 20:33:43,48.6314,-2.0614,59.63,92,0,6.91,clear sky
581,Botad,IN,2022-10-28 20:33:54,22.1667,71.6667,78.24,39,0,7.09,clear sky
582,Berlevag,NO,2022-10-28 20:33:55,70.8578,29.0864,37.4,75,100,12.66,overcast clouds
583,Aranos,NA,2022-10-28 20:33:55,-24.1333,19.1167,79.38,12,0,7.31,clear sky
584,Riyadh,SA,2022-10-28 20:32:57,24.6877,46.7219,73.54,16,53,6.04,broken clouds
585,Tema,GH,2022-10-28 20:33:56,5.667,-0.0166,82.81,83,75,10.36,broken clouds
586,Sechura,PE,2022-10-28 20:33:57,-5.5569,-80.8222,72.73,61,56,15.7,broken clouds
587,Aketi,CD,2022-10-28 20:33:57,2.7388,23.7833,73.31,87,100,1.59,overcast clouds
588,Hargeysa,SO,2022-10-28 20:33:58,9.56,44.065,66.27,68,0,7.96,clear sky
589,Benavente,ES,2022-10-28 20:33:58,42.0025,-5.6783,59.67,76,100,6.71,overcast clouds
590,Taveta,KE,2022-10-28 20:33:58,-3.3963,37.6736,68.54,81,9,5.86,clear sky
591,Yining,CN,2022-10-28 20:33:59,29.0361,114.5636,57.83,94,100,2.59,overcast clouds
592,Biu,NG,2022-10-28 20:33:59,10.6129,12.1946,73.26,28,71,5.95,broken clouds
593,Norrtalje,SE,2022-10-28 20:34:00,59.758,18.705,55.44,94,100,8.19,overcast clouds
594,Hambantota,LK,2022-10-28 20:34:00,6.1241,81.1185,77.5,77,59,4.07,broken clouds
595,Santo Domingo,DO,2022-10-28 20:32:09,18.5001,-69.9886,78.44,89,75,16.11,broken clouds
596,Williamsburg,US,2022-10-28 20:34:01,37.2707,-76.7075,62.78,77,100,8.05,overcast clouds
597,Sovetskiy,RU,2022-10-28 20:34:01,61.3614,63.5842,27.01,85,11,4.43,few clouds
598,Chabahar,IR,2022-10-28 20:34:02,25.2919,60.643,79.7,65,37,4.65,scattered clouds
599,Saint Anthony,US,2022-10-28 20:30:28,45.0205,-93.218,63.86,42,0,12.66,clear sky
600,Vigeland,NO,2022-10-28 20:35:03,58.0844,7.305,57.42,92,100,17.2,overcast clouds
601,Kinkala,CG,2022-10-28 20:35:03,-4.3614,14.7644,71.26,95,100,4.88,light rain
602,Banfora,BF,2022-10-28 20:35:04,10.6333,-4.7667,80.62,36,4,3.31,clear sky
603,Coventry,GB,2022-10-28 20:35:04,52.4066,-1.5122,55.38,88,0,5.75,clear sky
604,Pishin,PK,2022-10-28 20:35:05,30.5803,66.9961,56.86,17,62,2.51,broken clouds
605,Carbonia,IT,2022-10-28 20:35:05,39.1672,8.5222,61.02,50,4,3.69,clear sky
606,Birjand,IR,2022-10-28 20:35:06,32.8663,59.2211,55.87,21,0,6.91,clear sky
607,Iguape,BR,2022-10-28 20:35:07,-24.7081,-47.5553,71.94,93,100,3.0,overcast clouds
608,Stornoway,GB,2022-10-28 20:35:07,58.2093,-6.3865,53.56,84,20,11.5,few clouds
609,Qafqafa,JO,2022-10-28 20:35:08,32.3483,35.9395,65.55,43,91,1.97,overcast clouds
610,Dioknisi,GE,2022-10-28 20:35:08,41.6293,42.3917,42.35,98,100,3.09,overcast clouds
611,Tignere,CM,2022-10-28 20:35:09,7.3667,12.65,68.27,67,89,1.16,overcast clouds
612,Yarada,IN,2022-10-28 20:35:09,17.65,83.2667,75.96,74,0,6.93,clear sky
613,Boralday,KZ,2022-10-28 20:35:10,43.3578,76.8594,31.86,93,75,0.0,mist
614,Nsanje,MW,2022-10-28 20:35:10,-16.92,35.262,80.2,56,71,6.2,broken clouds
615,Sayat,TM,2022-10-28 20:35:11,38.7839,63.8803,57.07,45,67,3.49,broken clouds
616,Bereda,ES,2022-10-28 20:35:11,43.2686,-7.5406,60.42,93,100,9.13,overcast clouds
617,Mamallapuram,IN,2022-10-28 20:35:12,12.6264,80.1722,78.85,76,83,11.99,broken clouds
618,Mulatupo,PA,2022-10-28 20:35:12,8.9492,-77.7652,83.16,68,97,5.32,overcast clouds
619,Valdivia,CL,2022-10-28 20:35:13,-39.8142,-73.2459,57.29,85,100,6.6,overcast clouds
620,Brigantine,US,2022-10-28 20:35:13,39.4101,-74.3646,58.01,70,100,13.8,overcast clouds
621,La Romana,DO,2022-10-28 20:35:14,18.4273,-68.9728,84.56,79,75,5.75,broken clouds
622,Konotop,UA,2022-10-28 20:35:14,51.2403,33.2026,46.89,93,100,5.79,overcast clouds
623,Zambezi,ZM,2022-10-28 20:35:15,-13.5432,23.1047,71.69,59,86,3.31,overcast clouds
624,Malindi,KE,2022-10-28 20:35:15,-3.2175,40.1191,76.03,83,35,10.18,scattered clouds
625,Teguldet,RU,2022-10-28 20:35:16,57.3064,88.1667,25.16,79,65,10.74,broken clouds
626,Omboue,GA,2022-10-28 20:35:16,-1.5746,9.2618,77.34,91,100,6.64,light rain
627,Pucara,PE,2022-10-28 20:35:17,-15.9803,-71.4606,46.53,18,0,14.32,clear sky
628,Barcelos,PT,2022-10-28 20:34:21,41.5388,-8.6151,68.68,90,100,10.42,overcast clouds
629,Hennenman,ZA,2022-10-28 20:35:18,-27.9765,27.0242,60.78,64,90,21.36,overcast clouds
630,Zhuravka,UA,2022-10-28 20:35:18,50.4811,32.5949,47.66,91,100,5.77,overcast clouds
631,Japura,ID,2022-10-28 20:35:19,-0.3167,102.35,73.42,99,100,1.83,moderate rain
632,Ibra,OM,2022-10-28 20:35:19,22.6906,58.5334,72.99,55,0,3.71,clear sky
633,Havre-Saint-Pierre,CA,2022-10-28 20:35:20,50.2334,-63.5986,42.8,70,0,25.32,clear sky
634,Bathsheba,BB,2022-10-28 20:35:21,13.2167,-59.5167,79.41,94,75,19.57,broken clouds
635,Lujan,AR,2022-10-28 20:30:43,-34.5703,-59.105,92.01,36,61,4.0,broken clouds
636,Uige,AO,2022-10-28 20:35:22,-7.6087,15.0613,67.5,98,100,1.1,light rain
637,Gumia,IN,2022-10-28 20:35:22,23.7833,85.8167,64.54,57,0,3.06,clear sky
638,Bulawayo,ZW,2022-10-28 20:35:23,-20.15,28.5833,67.17,69,0,16.93,clear sky
639,Olinda,BR,2022-10-28 20:35:23,-8.0089,-34.8553,80.33,69,40,6.91,scattered clouds
640,Eirunepe,BR,2022-10-28 20:35:24,-6.6603,-69.8736,76.14,94,100,1.07,heavy intensity rain
641,Isla Mujeres,MX,2022-10-28 20:33:01,21.2311,-86.731,84.25,67,18,9.51,few clouds
642,Santa Vitoria,BR,2022-10-28 20:35:25,-18.8386,-50.1214,86.16,42,20,2.33,few clouds
643,Herat,AF,2022-10-28 20:35:25,34.5,62.0,60.58,24,0,8.16,clear sky
644,Limanowa,PL,2022-10-28 20:35:25,49.7059,20.422,54.14,76,29,5.28,scattered clouds
645,Kemijarvi,FI,2022-10-28 20:35:26,66.7131,27.4306,38.59,99,100,6.31,overcast clouds
646,Ballina,AU,2022-10-28 20:36:27,-28.8667,153.5667,67.01,70,0,6.67,clear sky
647,Mongo,TD,2022-10-28 20:36:27,12.1844,18.693,84.4,24,98,4.56,overcast clouds
648,Dudinka,RU,2022-10-28 20:36:27,69.4058,86.1778,20.62,94,100,20.47,light snow
649,Port-Cartier,CA,2022-10-28 20:36:28,50.0334,-66.8654,44.82,54,2,10.31,clear sky
650,Los Llanos De Aridane,ES,2022-10-28 20:36:28,28.6585,-17.9182,74.12,51,0,3.44,clear sky
651,Arkadak,RU,2022-10-28 20:36:29,51.9326,43.4978,35.92,88,100,2.95,overcast clouds
652,Wawa,NG,2022-10-28 20:36:29,9.9022,4.4192,77.38,40,68,2.71,broken clouds
653,Joao Pinheiro,BR,2022-10-28 20:36:30,-17.7425,-46.1725,85.03,28,48,2.62,scattered clouds
654,Cefalu,IT,2022-10-28 20:36:30,38.0386,14.0229,70.54,69,2,3.0,clear sky
655,Fraga,ES,2022-10-28 20:36:30,41.5229,0.3489,70.63,60,100,4.97,overcast clouds
656,Doha,QA,2022-10-28 20:32:08,25.2867,51.5333,85.89,66,0,5.75,clear sky
657,Neyshabur,IR,2022-10-28 20:36:31,36.2133,58.7958,59.81,37,2,4.9,clear sky
658,Rio Grande,BR,2022-10-28 20:36:32,-32.035,-52.0986,82.51,65,0,7.81,clear sky
659,La Macarena,CO,2022-10-28 20:36:32,2.1837,-73.7849,84.58,70,62,4.9,broken clouds
660,Gazalkent,UZ,2022-10-28 20:36:33,41.5581,69.7708,54.77,46,100,4.23,overcast clouds
661,Salta,AR,2022-10-28 20:36:33,-24.7859,-65.4117,90.57,24,20,11.5,few clouds
662,Den Helder,NL,2022-10-28 20:36:34,52.9599,4.7593,60.98,92,75,10.0,broken clouds
663,Portree,GB,2022-10-28 20:36:34,57.4129,-6.1942,53.53,93,24,16.69,few clouds
664,Verkhnedneprovskiy,RU,2022-10-28 20:36:35,54.9813,33.3457,45.07,97,100,7.14,overcast clouds
665,Durusu,TR,2022-10-28 20:36:35,41.3053,28.6767,60.84,81,2,13.0,clear sky
666,Inirida,CO,2022-10-28 20:36:36,3.8653,-67.9239,81.91,80,97,2.77,overcast clouds
667,Kiri Buru,IN,2022-10-28 20:36:37,22.0833,85.35,61.68,71,0,0.81,clear sky
668,Vienne,AT,2022-10-28 20:35:30,48.2085,16.3721,57.24,93,100,4.61,light intensity drizzle
669,Tokmak,UA,2022-10-28 20:36:37,47.2514,35.7058,50.7,68,61,4.07,broken clouds
670,Taltal,CL,2022-10-28 20:36:38,-25.4,-70.4833,62.51,68,22,6.44,few clouds
671,Lewisporte,CA,2022-10-28 20:36:38,49.2499,-55.0482,46.11,53,1,10.76,clear sky
672,Iquitos,PE,2022-10-28 20:36:39,-3.7481,-73.2472,75.24,83,100,10.36,very heavy rain
673,Tena,EC,2022-10-28 20:36:39,-0.9833,-77.8167,69.96,92,97,1.68,moderate rain
674,Rawson,AR,2022-10-28 20:36:39,-43.3002,-65.1023,62.37,20,100,27.47,overcast clouds
675,Antalaha,MG,2022-10-28 20:36:40,-14.9003,50.2788,68.2,89,6,3.98,clear sky
676,Ramotswa,BW,2022-10-28 20:36:40,-24.8716,25.8699,78.42,69,99,9.98,light rain
677,Moissala,TD,2022-10-28 20:36:41,8.3404,17.7663,76.41,57,83,1.81,broken clouds
678,Taoudenni,ML,2022-10-28 20:36:41,22.6783,-3.9836,83.25,12,0,10.8,clear sky
679,Mazsalaca,LV,2022-10-28 20:36:42,57.8633,25.0547,52.95,89,100,9.1,overcast clouds
680,Mogadishu,SO,2022-10-28 20:36:42,2.0371,45.3438,77.23,86,92,7.72,moderate rain
681,Havelock,US,2022-10-28 20:36:42,34.8791,-76.9013,66.92,90,100,14.97,overcast clouds
682,Puerto Del Rosario,ES,2022-10-28 20:32:23,28.5004,-13.8627,76.75,41,20,5.75,few clouds
683,Jamame,SO,2022-10-28 20:36:43,0.0722,42.7506,77.67,80,85,8.39,overcast clouds
684,Dalvik,IS,2022-10-28 20:36:43,65.9702,-18.5286,28.33,77,100,8.61,overcast clouds
685,Ryomgard,DK,2022-10-28 20:36:44,56.3843,10.503,59.0,96,75,6.91,broken clouds
686,Makat,KZ,2022-10-28 20:36:44,47.6469,53.3463,40.75,92,100,10.33,light rain
687,Araouane,ML,2022-10-28 20:36:45,18.9048,-3.5265,78.94,11,0,10.31,clear sky
688,Skibbereen,IE,2022-10-28 20:36:45,51.55,-9.2667,58.1,92,99,16.75,overcast clouds
689,Porbandar,IN,2022-10-28 20:36:46,21.6422,69.6093,79.36,60,0,7.63,clear sky
690,Santa Isabel Do Rio Negro,BR,2022-10-28 20:36:46,-0.4139,-65.0192,88.97,58,95,4.12,light rain
691,Verkhnyaya Toyma,RU,2022-10-28 20:36:46,62.2349,44.9985,39.0,99,100,5.17,light rain
692,Pimentel,PE,2022-10-28 20:37:47,-6.8367,-79.9342,68.29,64,0,19.57,clear sky
693,Butembo,CD,2022-10-28 20:37:47,0.15,29.2833,57.79,96,100,2.28,overcast clouds
694,Floro,NO,2022-10-28 20:37:48,61.5996,5.0328,56.97,100,75,23.02,broken clouds
695,Bodden Town,KY,2022-10-28 20:37:48,19.2833,-81.25,87.8,66,40,13.8,scattered clouds
696,Puerto Concordia,CO,2022-10-28 20:37:49,2.6221,-72.7572,82.22,90,97,3.47,overcast clouds
697,Ambanja,MG,2022-10-28 20:37:49,-13.6833,48.45,73.58,91,69,1.05,light rain
698,Rincon,US,2022-10-28 20:34:46,32.296,-81.2354,71.91,69,75,8.05,broken clouds
699,Alindao,CF,2022-10-28 20:37:50,5.0267,21.2088,70.9,91,100,3.11,light rain
700,Gweru,ZW,2022-10-28 20:37:52,-19.45,29.8167,68.79,57,13,13.78,few clouds
701,Carnarvon,AU,2022-10-28 20:37:52,-24.8667,113.6333,66.51,60,58,18.12,broken clouds
702,Vila Do Maio,CV,2022-10-28 20:37:52,15.1333,-23.2167,83.19,73,100,10.76,overcast clouds
703,La Rioja,ES,2022-10-28 20:37:53,42.25,-2.5,62.38,41,100,8.5,overcast clouds
704,Shieli,KZ,2022-10-28 20:37:54,44.1667,66.75,41.88,50,41,4.54,scattered clouds
705,Candido Mendes,BR,2022-10-28 20:37:54,-1.4467,-45.7167,79.5,76,80,7.92,broken clouds
706,Mattru,SL,2022-10-28 20:37:54,7.6244,-11.8332,74.79,97,99,2.33,overcast clouds
707,Swellendam,ZA,2022-10-28 20:37:55,-34.0226,20.4417,59.27,86,56,9.51,broken clouds
708,Porto Belo,BR,2022-10-28 20:36:09,-27.1578,-48.5531,77.79,88,1,6.06,clear sky
709,Tessalit,ML,2022-10-28 20:37:55,20.1986,1.0114,75.51,17,0,10.76,clear sky
710,Nova Gradiska,HR,2022-10-28 20:37:56,45.255,17.3831,51.69,82,12,2.24,few clouds
711,Moron,AR,2022-10-28 20:37:56,-34.6534,-58.6198,91.15,32,85,8.43,overcast clouds
712,Kita,ML,2022-10-28 20:37:57,13.0349,-9.4895,81.05,29,24,4.65,few clouds
